{"timestamp":"2017-03-22T13:02:00.000Z","parkings":[{"id":"1","name":"EOC","lon":"6.129051","lat":"51.779949","total":"790","current":"535","trend":"1","state":"open"},{"id":"2","name":"Markt/Linde","lon":"6.131015","lat":"51.783141","total":"89","current":"82","trend":"-1","state":"open"},{"id":"3","name":"Neue Mitte","lon":"6.13477","lat":"51.78492","total":"233","current":"35","trend":"0","state":"open"},{"id":"4","name":"Stechbahn","lon":"6.135001","lat":"51.786689","total":"117","current":"45","trend":"0","state":"open"},{"id":"5","name":"Grosser Markt","lon":"6.136562","lat":"51.788312","total":"97","current":"44","trend":"0","state":"open"},{"id":"6","name":"Rathaus/Hafenstrasse","lon":"6.138691","lat":"51.790448","total":"75","current":"54","trend":"1","state":"open"},{"id":"7","name":"Minoritenplatz","lon":"6.140429","lat":"51.790385","total":"162","current":"189","trend":"0","state":"open"},{"id":"8","name":"Ludwig-Jahn-Strasse","lon":"6.140821","lat":"51.791816","total":"175","current":"37","trend":"0","state":"open"},{"id":"9","name":"Spoykanal","lon":"6.142259","lat":"51.791696","total":"347","current":"158","trend":"-1","state":"open"},{"id":"10","name":"Van-den-Bergh-Strasse","lon":"6.146014","lat":"51.790329","total":"227","current":"240","trend":"0","state":"open"}],"data_source":"https://www.kleve.de/parkleitsystem/pls.xml","publisher":"Stadt Kleve","licence":"Datenlizenz Deutschland â€“ Zero â€“ Version 2.0","info":"https://www.offenesdatenportal.de/dataset/parkleitsystem-stadt-kleve/resource/d900652f-5104-457a-8dcd-696fb1441b62"}